Place_Name,Latitude,Longitude
"Nanjangud, Mysore, Karnataka, India",12.12,76.68
"Chittorgarh, Rajasthan, India",24.879999,74.629997
"Ratnagiri, Maharashtra, India",16.994444,73.300003
"Goregaon, Mumbai, Maharashtra, India",19.155001,72.849998
"Pindwara, Rajasthan, India",24.7945,73.055
"Raipur, Chhattisgarh, India",21.25,81.629997
"Gokak, Karnataka, India",16.1667,74.833298
"Lucknow, Uttar Pradesh, India",26.85,80.949997
"Delhi, India",28.679079,77.06971